[
    {
        "lat": 35.1528603,
        "lng": 126.8618818,
        "name": "광주출입국·외국인사무소",
        "address": "광주시 서구 상무대로 911번길 22"
    },
    {
        "lat": 34.8073668,
        "lng": 126.4325458,
        "name": "광주출입국·외국인사무소 목포출장소",
        "address": "전남 목포시 백년대로 412번길 26"
    },
    {
        "lat": 34.9961733,
        "lng": 126.3876314,
        "name": "광주출입국·외국인사무소 무안공항출장소",
        "address": "전남 무안군 망운면 공항로 970-260"
    },
    {
        "lat": 37.5713698,
        "lng": 126.8029604,
        "name": "김포공항출입국·외국인사무소",
        "address": "서울시 강서구 하늘길38"
    },
    {
        "lat": 35.1720764,
        "lng": 128.9474778,
        "name": "김해공항출입국·외국인사무소",
        "address": "부산시 강서구 공항진입로 108"
    },
    {
        "lat": 35.877972,
        "lng": 128.7347373,
        "name": "대구출입국·외국인사무소",
        "address": "대구시 동구 이노밸리로 345"
    },
    {
        "lat": 36.1192104,
        "lng": 128.3656883,
        "name": "대구출입국·외국인사무소 구미출장소",
        "address": "경상북도 구미시 구미대로 350-27"
    },
    {
        "lat": 36.0607621,
        "lng": 129.3668064,
        "name": "대구출입국·외국인사무소 포항출장소",
        "address": "경북 포항시 북구 우창동로 135"
    },
    {
        "lat": 36.3367153,
        "lng": 127.4110146,
        "name": "대전출입국·외국인사무소",
        "address": "대전시 중구 목중로 26번길 7"
    },
    {
        "lat": 36.9854933,
        "lng": 126.7454054,
        "name": "대전출입국·외국인사무소 당진출장소",
        "address": "충남 당진시 송악읍 고대리 342-3"
    },
    {
        "lat": 36.779815,
        "lng": 126.4489632,
        "name": "대전출입국·외국인사무소 서산출장소(구 대산출장소)",
        "address": "충남 서산시 읍내3로 28"
    },
    {
        "lat": 36.7980671,
        "lng": 127.1085242,
        "name": "대전출입국·외국인사무소 천안출장소",
        "address": "충청남도 천안시 서북구 광장로 215"
    },
    {
        "lat": 35.1045353,
        "lng": 129.0394281,
        "name": "부산출입국·외국인청",
        "address": "부산시 중구 충장대로 22-1)"
    },
    {
        "lat": 35.0598669,
        "lng": 129.0098524,
        "name": "부산출입국·외국인청 감천출장소",
        "address": "부산시 서구 원양로 35"
    },
    {
        "lat": 35.2317815,
        "lng": 128.882269,
        "name": "부산출입국·외국인청 김해출장소",
        "address": "경남 김해시 가락로 58"
    },
    {
        "lat": 37.5611273,
        "lng": 126.821344,
        "name": "서울남부출입국·외국인사무소",
        "address": "서울시 강서구 마곡서1로 48"
    },
    {
        "lat": 37.5191896,
        "lng": 126.8695503,
        "name": "서울출입국·외국인청",
        "address": "서울시 양천구 목동동로 151"
    },
    {
        "lat": 37.5698232,
        "lng": 126.9814806,
        "name": "서울출입국·외국인청 세종로출장소",
        "address": "서울시 종로구 종로 38"
    },
    {
        "lat": 37.2508494,
        "lng": 127.0768016,
        "name": "수원출입국·외국인청",
        "address": "수원시 영통구 반달로 39"
    },
    {
        "lat": 37.0677303,
        "lng": 127.063775,
        "name": "수원출입국·외국인청 평택출장소",
        "address": "경기도 평택시 경기대로 1375"
    },
    {
        "lat": 36.9456759,
        "lng": 126.8552413,
        "name": "수원출입국·외국인청 평택항만출장소",
        "address": "경기도 평택시 포승읍 하만호길 155-40"
    },
    {
        "lat": 37.3152876,
        "lng": 126.8222293,
        "name": "안산출입국·외국인사무소",
        "address": "경기도 안산시 단원구 광덕4로 88"
    },
    {
        "lat": 37.6358342,
        "lng": 126.8338649,
        "name": "양주출입국·외국인사무소 고양출장소",
        "address": "경기도 고양시 덕양구 화중로 104번길 50"
    },
    {
        "lat": 37.8216525,
        "lng": 127.0475374,
        "name": "양주출입국·외국인사무소(구 의정부출입국·외국인사무소)",
        "address": "경기도 양주시 평화로 1475번길 23"
    },
    {
        "lat": 34.7808696,
        "lng": 127.6453402,
        "name": "여수출입국·외국인사무소",
        "address": "전남 여수시 무선로 267"
    },
    {
        "lat": 34.9406999,
        "lng": 127.6941416,
        "name": "여수출입국·외국인사무소 광양출장소",
        "address": "전남 광양시 중동2길 23"
    },
    {
        "lat": 35.566965,
        "lng": 129.3177094,
        "name": "울산출입국·외국인사무소",
        "address": "울산광역시 중구 종가로 405-1"
    },
    {
        "lat": 37.5548376,
        "lng": 126.9717326,
        "name": "인천공항 출입국·외국인청 서울출장소",
        "address": "서울특별시 용산구 한강대로 405"
    },
    {
        "lat": 37.4583507,
        "lng": 126.4276993,
        "name": "인천공항출입국·외국인청",
        "address": "인천시 중구 공항로 272"
    },
    {
        "lat": 37.4623636,
        "lng": 126.6312539,
        "name": "인천출입국·외국인청",
        "address": "인천시 중구 서해대로 393"
    },
    {
        "lat": 35.9776394,
        "lng": 126.7050421,
        "name": "전주출입국·외국인사무소 군산출장소",
        "address": "전북 군산시 대학로 151-1"
    },
    {
        "lat": 33.5136998,
        "lng": 126.5032108,
        "name": "제주출입국·외국인청",
        "address": "제주시 용담3동 953번지"
    },
    {
        "lat": 35.19477,
        "lng": 128.573018,
        "name": "창원출입국·외국인사무소",
        "address": "경남 창원시 마산합포구 제2부두로 30"
    },
    {
        "lat": 34.912391,
        "lng": 128.6477075,
        "name": "창원출입국·외국인사무소 거제출장소",
        "address": "경남 거제시 연초면 연사리 302"
    },
    {
        "lat": 34.9381897,
        "lng": 128.075865,
        "name": "창원출입국·외국인사무소 사천출장소",
        "address": "경남 사천시 삼천포대교로 450"
    },
    {
        "lat": 34.8439639,
        "lng": 128.4272725,
        "name": "창원출입국·외국인사무소 통영출장소",
        "address": "경남 통영시 남망길 5"
    },
    {
        "lat": 36.6304684,
        "lng": 127.4264025,
        "name": "청주출입국·외국인사무소",
        "address": "충북 청주시 흥덕구 비하로 12번길 52"
    },
    {
        "lat": 37.8306177,
        "lng": 127.7644055,
        "name": "춘천출입국·외국인사무소",
        "address": "강원도 춘천시 동내면 사암길 12"
    },
    {
        "lat": 38.5670608,
        "lng": 128.391775,
        "name": "춘천출입국·외국인사무소 고성출장소",
        "address": "강원도 고성군 현내면 동해대로 9097"
    },
    {
        "lat": 37.5234305,
        "lng": 129.1190692,
        "name": "춘천출입국·외국인사무소 동해출장소",
        "address": "강원도 동해시 해안로 225"
    },
    {
        "lat": 38.1970372,
        "lng": 128.5794731,
        "name": "춘천출입국·외국인사무소 속초출장소",
        "address": "강원도 속초시 청초호반로 189"
    },
    {
        "lat": 37.4261404,
        "lng": 126.9844513,
        "name": "출입국·외국인정책본부",
        "address": "경기도 과천시 관문로 47"
    },
    {
        "lat": 37.2089817,
        "lng": 126.7668305,
        "name": "화성외국인보호소",
        "address": "경기도 화성시 마도면 화성로 739"
    }
] 